{
  "cities": [
    {
      "name": "Delhi",
      "lat": 28.6139,
      "lng": 77.209,
      "lst": 42.5,
      "kmeans_zone": "Hot Zone",
      "dbscan_cluster": 0,
      "gi_z_score": 2.9411,
      "gi_p_value": 0.0033,
      "gi_classification": "Critical Hotspot"
    },
    {
      "name": "Mumbai",
      "lat": 19.076,
      "lng": 72.8777,
      "lst": 38.2,
      "kmeans_zone": "Hot Zone",
      "dbscan_cluster": 0,
      "gi_z_score": -0.3227,
      "gi_p_value": 0.7469,
      "gi_classification": "Not Significant"
    },
    {
      "name": "Bengaluru",
      "lat": 12.9716,
      "lng": 77.5946,
      "lst": 34.1,
      "kmeans_zone": "Moderate Zone",
      "dbscan_cluster": 1,
      "gi_z_score": -2.1772,
      "gi_p_value": 0.0295,
      "gi_classification": "Cold Spot"
    },
    {
      "name": "Chennai",
      "lat": 13.0827,
      "lng": 80.2707,
      "lst": 40.8,
      "kmeans_zone": "Hot Zone",
      "dbscan_cluster": 0,
      "gi_z_score": -0.474,
      "gi_p_value": 0.6355,
      "gi_classification": "Not Significant"
    },
    {
      "name": "Hyderabad",
      "lat": 17.385,
      "lng": 78.4867,
      "lst": 39.4,
      "kmeans_zone": "Moderate Zone",
      "dbscan_cluster": 0,
      "gi_z_score": 0.7575,
      "gi_p_value": 0.4488,
      "gi_classification": "Not Significant"
    },
    {
      "name": "Ahmedabad",
      "lat": 23.0225,
      "lng": 72.5714,
      "lst": 44.2,
      "kmeans_zone": "Hot Zone",
      "dbscan_cluster": 0,
      "gi_z_score": 1.3995,
      "gi_p_value": 0.1617,
      "gi_classification": "Not Significant"
    },
    {
      "name": "Kolkata",
      "lat": 22.5726,
      "lng": 88.3639,
      "lst": 39.8,
      "kmeans_zone": "Hot Zone",
      "dbscan_cluster": 0,
      "gi_z_score": 0.3353,
      "gi_p_value": 0.7374,
      "gi_classification": "Not Significant"
    },
    {
      "name": "Pune",
      "lat": 18.5204,
      "lng": 73.8567,
      "lst": 36.4,
      "kmeans_zone": "Moderate Zone",
      "dbscan_cluster": 0,
      "gi_z_score": -0.343,
      "gi_p_value": 0.7316,
      "gi_classification": "Not Significant"
    },
    {
      "name": "Jaipur",
      "lat": 26.9124,
      "lng": 75.7873,
      "lst": 43.8,
      "kmeans_zone": "Hot Zone",
      "dbscan_cluster": 0,
      "gi_z_score": 5.1169,
      "gi_p_value": 0.0,
      "gi_classification": "Critical Hotspot"
    },
    {
      "name": "Lucknow",
      "lat": 26.8467,
      "lng": 80.9462,
      "lst": 41.2,
      "kmeans_zone": "Hot Zone",
      "dbscan_cluster": 0,
      "gi_z_score": 2.4283,
      "gi_p_value": 0.0152,
      "gi_classification": "Significant Hotspot"
    },
    {
      "name": "Surat",
      "lat": 21.1702,
      "lng": 72.8311,
      "lst": 41.5,
      "kmeans_zone": "Hot Zone",
      "dbscan_cluster": 0,
      "gi_z_score": 0.6888,
      "gi_p_value": 0.4909,
      "gi_classification": "Not Significant"
    },
    {
      "name": "Kanpur",
      "lat": 26.4499,
      "lng": 80.3319,
      "lst": 43.1,
      "kmeans_zone": "Hot Zone",
      "dbscan_cluster": 0,
      "gi_z_score": 2.7224,
      "gi_p_value": 0.0065,
      "gi_classification": "Critical Hotspot"
    },
    {
      "name": "Nagpur",
      "lat": 21.1458,
      "lng": 79.0882,
      "lst": 42.8,
      "kmeans_zone": "Hot Zone",
      "dbscan_cluster": -1,
      "gi_z_score": 0.3946,
      "gi_p_value": 0.6932,
      "gi_classification": "Not Significant"
    },
    {
      "name": "Indore",
      "lat": 22.7196,
      "lng": 75.8577,
      "lst": 38.5,
      "kmeans_zone": "Moderate Zone",
      "dbscan_cluster": 0,
      "gi_z_score": 0.8627,
      "gi_p_value": 0.3883,
      "gi_classification": "Not Significant"
    },
    {
      "name": "Bhopal",
      "lat": 23.2599,
      "lng": 77.4126,
      "lst": 37.8,
      "kmeans_zone": "Moderate Zone",
      "dbscan_cluster": 0,
      "gi_z_score": 0.5128,
      "gi_p_value": 0.6081,
      "gi_classification": "Not Significant"
    },
    {
      "name": "Visakhapatnam",
      "lat": 17.6868,
      "lng": 83.2185,
      "lst": 36.5,
      "kmeans_zone": "Moderate Zone",
      "dbscan_cluster": -1,
      "gi_z_score": -0.1942,
      "gi_p_value": 0.846,
      "gi_classification": "Not Significant"
    },
    {
      "name": "Patna",
      "lat": 25.6093,
      "lng": 85.1376,
      "lst": 41.5,
      "kmeans_zone": "Hot Zone",
      "dbscan_cluster": 0,
      "gi_z_score": 1.0782,
      "gi_p_value": 0.2809,
      "gi_classification": "Not Significant"
    },
    {
      "name": "Vadodara",
      "lat": 22.3072,
      "lng": 73.1812,
      "lst": 40.8,
      "kmeans_zone": "Moderate Zone",
      "dbscan_cluster": 0,
      "gi_z_score": 0.9929,
      "gi_p_value": 0.3207,
      "gi_classification": "Not Significant"
    },
    {
      "name": "Rajkot",
      "lat": 22.3039,
      "lng": 70.8022,
      "lst": 44.5,
      "kmeans_zone": "Hot Zone",
      "dbscan_cluster": 0,
      "gi_z_score": 1.4425,
      "gi_p_value": 0.1491,
      "gi_classification": "Not Significant"
    },
    {
      "name": "Varanasi",
      "lat": 25.3176,
      "lng": 82.9739,
      "lst": 42.8,
      "kmeans_zone": "Hot Zone",
      "dbscan_cluster": 0,
      "gi_z_score": 1.8581,
      "gi_p_value": 0.0632,
      "gi_classification": "Marginal Hotspot"
    },
    {
      "name": "Coimbatore",
      "lat": 11.0168,
      "lng": 76.9558,
      "lst": 34.2,
      "kmeans_zone": "Cool Zone",
      "dbscan_cluster": 1,
      "gi_z_score": -3.0686,
      "gi_p_value": 0.0022,
      "gi_classification": "Cold Spot"
    },
    {
      "name": "Agra",
      "lat": 27.1767,
      "lng": 78.0081,
      "lst": 43.5,
      "kmeans_zone": "Hot Zone",
      "dbscan_cluster": 0,
      "gi_z_score": 4.3561,
      "gi_p_value": 0.0,
      "gi_classification": "Critical Hotspot"
    },
    {
      "name": "Madurai",
      "lat": 9.9252,
      "lng": 78.1198,
      "lst": 38.1,
      "kmeans_zone": "Moderate Zone",
      "dbscan_cluster": 1,
      "gi_z_score": -2.6237,
      "gi_p_value": 0.0087,
      "gi_classification": "Cold Spot"
    },
    {
      "name": "Nashik",
      "lat": 19.9975,
      "lng": 73.7898,
      "lst": 35.8,
      "kmeans_zone": "Moderate Zone",
      "dbscan_cluster": 0,
      "gi_z_score": 0.0774,
      "gi_p_value": 0.9383,
      "gi_classification": "Not Significant"
    },
    {
      "name": "Ranchi",
      "lat": 23.3441,
      "lng": 85.3096,
      "lst": 34.5,
      "kmeans_zone": "Moderate Zone",
      "dbscan_cluster": -1,
      "gi_z_score": 0.6508,
      "gi_p_value": 0.5152,
      "gi_classification": "Not Significant"
    },
    {
      "name": "Guwahati",
      "lat": 26.1445,
      "lng": 91.7362,
      "lst": 33.2,
      "kmeans_zone": "Cool Zone",
      "dbscan_cluster": 2,
      "gi_z_score": -3.8752,
      "gi_p_value": 0.0001,
      "gi_classification": "Cold Spot"
    },
    {
      "name": "Chandigarh",
      "lat": 30.7333,
      "lng": 76.7794,
      "lst": 35.2,
      "kmeans_zone": "Moderate Zone",
      "dbscan_cluster": -1,
      "gi_z_score": 1.5064,
      "gi_p_value": 0.132,
      "gi_classification": "Not Significant"
    },
    {
      "name": "Thiruvananthapuram",
      "lat": 8.5241,
      "lng": 76.9366,
      "lst": 32.5,
      "kmeans_zone": "Cool Zone",
      "dbscan_cluster": 1,
      "gi_z_score": -2.4264,
      "gi_p_value": 0.0153,
      "gi_classification": "Cold Spot"
    },
    {
      "name": "Jodhpur",
      "lat": 26.2389,
      "lng": 73.0243,
      "lst": 46.8,
      "kmeans_zone": "Hot Zone",
      "dbscan_cluster": 0,
      "gi_z_score": 2.8342,
      "gi_p_value": 0.0046,
      "gi_classification": "Critical Hotspot"
    },
    {
      "name": "Gwalior",
      "lat": 26.2183,
      "lng": 78.1828,
      "lst": 43.2,
      "kmeans_zone": "Hot Zone",
      "dbscan_cluster": 0,
      "gi_z_score": 3.4535,
      "gi_p_value": 0.0006,
      "gi_classification": "Critical Hotspot"
    },
    {
      "name": "Raipur",
      "lat": 21.2514,
      "lng": 81.6296,
      "lst": 40.1,
      "kmeans_zone": "Moderate Zone",
      "dbscan_cluster": 0,
      "gi_z_score": 0.3768,
      "gi_p_value": 0.7063,
      "gi_classification": "Not Significant"
    },
    {
      "name": "Kochi",
      "lat": 9.9312,
      "lng": 76.2673,
      "lst": 32.8,
      "kmeans_zone": "Cool Zone",
      "dbscan_cluster": 1,
      "gi_z_score": -2.6237,
      "gi_p_value": 0.0087,
      "gi_classification": "Cold Spot"
    },
    {
      "name": "Bhubaneswar",
      "lat": 20.2961,
      "lng": 85.8245,
      "lst": 38.5,
      "kmeans_zone": "Moderate Zone",
      "dbscan_cluster": 0,
      "gi_z_score": -0.0404,
      "gi_p_value": 0.9678,
      "gi_classification": "Not Significant"
    },
    {
      "name": "Dehradun",
      "lat": 30.3165,
      "lng": 78.0322,
      "lst": 31.2,
      "kmeans_zone": "Cool Zone",
      "dbscan_cluster": -1,
      "gi_z_score": 1.9794,
      "gi_p_value": 0.0478,
      "gi_classification": "Significant Hotspot"
    },
    {
      "name": "Amritsar",
      "lat": 31.634,
      "lng": 74.8723,
      "lst": 41.2,
      "kmeans_zone": "Hot Zone",
      "dbscan_cluster": 0,
      "gi_z_score": -0.2933,
      "gi_p_value": 0.7693,
      "gi_classification": "Not Significant"
    },
    {
      "name": "Allahabad",
      "lat": 25.4358,
      "lng": 81.8463,
      "lst": 42.5,
      "kmeans_zone": "Hot Zone",
      "dbscan_cluster": 0,
      "gi_z_score": 1.3995,
      "gi_p_value": 0.1617,
      "gi_classification": "Not Significant"
    },
    {
      "name": "Vijayawada",
      "lat": 16.5062,
      "lng": 80.648,
      "lst": 40.2,
      "kmeans_zone": "Moderate Zone",
      "dbscan_cluster": 0,
      "gi_z_score": 0.2111,
      "gi_p_value": 0.8328,
      "gi_classification": "Not Significant"
    },
    {
      "name": "Mysuru",
      "lat": 12.2958,
      "lng": 76.6394,
      "lst": 33.5,
      "kmeans_zone": "Cool Zone",
      "dbscan_cluster": 1,
      "gi_z_score": -2.7774,
      "gi_p_value": 0.0055,
      "gi_classification": "Cold Spot"
    },
    {
      "name": "Tiruchirappalli",
      "lat": 10.7905,
      "lng": 78.7047,
      "lst": 38.8,
      "kmeans_zone": "Moderate Zone",
      "dbscan_cluster": 1,
      "gi_z_score": -2.612,
      "gi_p_value": 0.009,
      "gi_classification": "Cold Spot"
    },
    {
      "name": "Jabalpur",
      "lat": 23.1815,
      "lng": 79.9864,
      "lst": 38.2,
      "kmeans_zone": "Moderate Zone",
      "dbscan_cluster": 0,
      "gi_z_score": 0.7056,
      "gi_p_value": 0.4804,
      "gi_classification": "Not Significant"
    },
    {
      "name": "Meerut",
      "lat": 28.9845,
      "lng": 77.7064,
      "lst": 42.1,
      "kmeans_zone": "Hot Zone",
      "dbscan_cluster": 0,
      "gi_z_score": 2.9411,
      "gi_p_value": 0.0033,
      "gi_classification": "Critical Hotspot"
    },
    {
      "name": "Noida",
      "lat": 28.5355,
      "lng": 77.391,
      "lst": 43.2,
      "kmeans_zone": "Hot Zone",
      "dbscan_cluster": 0,
      "gi_z_score": 2.9411,
      "gi_p_value": 0.0033,
      "gi_classification": "Critical Hotspot"
    },
    {
      "name": "Gurugram",
      "lat": 28.4595,
      "lng": 77.0266,
      "lst": 44.1,
      "kmeans_zone": "Hot Zone",
      "dbscan_cluster": 0,
      "gi_z_score": 2.9411,
      "gi_p_value": 0.0033,
      "gi_classification": "Critical Hotspot"
    },
    {
      "name": "Shimla",
      "lat": 31.1048,
      "lng": 77.1734,
      "lst": 24.5,
      "kmeans_zone": "Cool Zone",
      "dbscan_cluster": -1,
      "gi_z_score": 1.5064,
      "gi_p_value": 0.132,
      "gi_classification": "Not Significant"
    },
    {
      "name": "Gandhinagar",
      "lat": 23.2156,
      "lng": 72.6369,
      "lst": 38.5,
      "kmeans_zone": "Moderate Zone",
      "dbscan_cluster": 0,
      "gi_z_score": 1.6552,
      "gi_p_value": 0.0979,
      "gi_classification": "Marginal Hotspot"
    },
    {
      "name": "Faridabad",
      "lat": 28.4089,
      "lng": 77.3178,
      "lst": 44.5,
      "kmeans_zone": "Hot Zone",
      "dbscan_cluster": 0,
      "gi_z_score": 2.9411,
      "gi_p_value": 0.0033,
      "gi_classification": "Critical Hotspot"
    },
    {
      "name": "Thane",
      "lat": 19.2183,
      "lng": 72.9781,
      "lst": 37.8,
      "kmeans_zone": "Moderate Zone",
      "dbscan_cluster": 0,
      "gi_z_score": -0.3227,
      "gi_p_value": 0.7469,
      "gi_classification": "Not Significant"
    },
    {
      "name": "Udaipur",
      "lat": 24.5854,
      "lng": 73.7125,
      "lst": 39.8,
      "kmeans_zone": "Moderate Zone",
      "dbscan_cluster": 0,
      "gi_z_score": 1.8064,
      "gi_p_value": 0.0709,
      "gi_classification": "Marginal Hotspot"
    },
    {
      "name": "Shillong",
      "lat": 25.5788,
      "lng": 91.8933,
      "lst": 22.8,
      "kmeans_zone": "Cool Zone",
      "dbscan_cluster": -1,
      "gi_z_score": -3.8752,
      "gi_p_value": 0.0001,
      "gi_classification": "Cold Spot"
    },
    {
      "name": "Jammu",
      "lat": 32.7266,
      "lng": 74.857,
      "lst": 38.5,
      "kmeans_zone": "Moderate Zone",
      "dbscan_cluster": -1,
      "gi_z_score": -1.2495,
      "gi_p_value": 0.2115,
      "gi_classification": "Not Significant"
    },
    {
      "name": "Bilaspur",
      "lat": 22.0797,
      "lng": 82.1409,
      "lst": 39.2,
      "kmeans_zone": "Moderate Zone",
      "dbscan_cluster": 0,
      "gi_z_score": 0.0486,
      "gi_p_value": 0.9612,
      "gi_classification": "Not Significant"
    },
    {
      "name": "Warangal",
      "lat": 17.9784,
      "lng": 79.5941,
      "lst": 39.8,
      "kmeans_zone": "Moderate Zone",
      "dbscan_cluster": 0,
      "gi_z_score": 0.5456,
      "gi_p_value": 0.5853,
      "gi_classification": "Not Significant"
    },
    {
      "name": "Tirupati",
      "lat": 13.6288,
      "lng": 79.4192,
      "lst": 37.2,
      "kmeans_zone": "Moderate Zone",
      "dbscan_cluster": 1,
      "gi_z_score": -0.2781,
      "gi_p_value": 0.7809,
      "gi_classification": "Not Significant"
    },
    {
      "name": "Ludhiana",
      "lat": 30.901,
      "lng": 75.8573,
      "lst": 41.8,
      "kmeans_zone": "Hot Zone",
      "dbscan_cluster": 0,
      "gi_z_score": 1.3614,
      "gi_p_value": 0.1734,
      "gi_classification": "Not Significant"
    },
    {
      "name": "Goa",
      "lat": 15.2993,
      "lng": 74.124,
      "lst": 31.5,
      "kmeans_zone": "Cool Zone",
      "dbscan_cluster": 1,
      "gi_z_score": -1.4037,
      "gi_p_value": 0.1604,
      "gi_classification": "Not Significant"
    },
    {
      "name": "Mangaluru",
      "lat": 12.9141,
      "lng": 74.856,
      "lst": 33.2,
      "kmeans_zone": "Cool Zone",
      "dbscan_cluster": 1,
      "gi_z_score": -3.1924,
      "gi_p_value": 0.0014,
      "gi_classification": "Cold Spot"
    },
    {
      "name": "Aurangabad",
      "lat": 19.8762,
      "lng": 75.3433,
      "lst": 40.5,
      "kmeans_zone": "Moderate Zone",
      "dbscan_cluster": 0,
      "gi_z_score": 0.0157,
      "gi_p_value": 0.9875,
      "gi_classification": "Not Significant"
    },
    {
      "name": "Solapur",
      "lat": 17.6599,
      "lng": 75.9064,
      "lst": 42.2,
      "kmeans_zone": "Hot Zone",
      "dbscan_cluster": 0,
      "gi_z_score": -0.7085,
      "gi_p_value": 0.4787,
      "gi_classification": "Not Significant"
    },
    {
      "name": "Hubli-Dharwad",
      "lat": 15.3647,
      "lng": 75.124,
      "lst": 36.2,
      "kmeans_zone": "Moderate Zone",
      "dbscan_cluster": 0,
      "gi_z_score": -1.4037,
      "gi_p_value": 0.1604,
      "gi_classification": "Not Significant"
    },
    {
      "name": "Bareilly",
      "lat": 28.367,
      "lng": 79.4304,
      "lst": 41.8,
      "kmeans_zone": "Hot Zone",
      "dbscan_cluster": 0,
      "gi_z_score": 3.3776,
      "gi_p_value": 0.0007,
      "gi_classification": "Critical Hotspot"
    },
    {
      "name": "Moradabad",
      "lat": 28.8386,
      "lng": 78.7733,
      "lst": 42.5,
      "kmeans_zone": "Hot Zone",
      "dbscan_cluster": 0,
      "gi_z_score": 2.378,
      "gi_p_value": 0.0174,
      "gi_classification": "Significant Hotspot"
    },
    {
      "name": "Aligarh",
      "lat": 27.8974,
      "lng": 78.088,
      "lst": 43.2,
      "kmeans_zone": "Hot Zone",
      "dbscan_cluster": 0,
      "gi_z_score": 3.9757,
      "gi_p_value": 0.0001,
      "gi_classification": "Critical Hotspot"
    },
    {
      "name": "Bikaner",
      "lat": 28.0229,
      "lng": 73.3119,
      "lst": 48.5,
      "kmeans_zone": "Hot Zone",
      "dbscan_cluster": 0,
      "gi_z_score": 3.2669,
      "gi_p_value": 0.0011,
      "gi_classification": "Critical Hotspot"
    },
    {
      "name": "Kota",
      "lat": 25.2138,
      "lng": 75.8648,
      "lst": 43.5,
      "kmeans_zone": "Hot Zone",
      "dbscan_cluster": 0,
      "gi_z_score": 2.1979,
      "gi_p_value": 0.028,
      "gi_classification": "Significant Hotspot"
    },
    {
      "name": "Salem",
      "lat": 11.6643,
      "lng": 78.146,
      "lst": 37.8,
      "kmeans_zone": "Moderate Zone",
      "dbscan_cluster": 1,
      "gi_z_score": -2.3072,
      "gi_p_value": 0.021,
      "gi_classification": "Cold Spot"
    },
    {
      "name": "Guntur",
      "lat": 16.3067,
      "lng": 80.4365,
      "lst": 41.2,
      "kmeans_zone": "Moderate Zone",
      "dbscan_cluster": 0,
      "gi_z_score": 0.2682,
      "gi_p_value": 0.7886,
      "gi_classification": "Not Significant"
    },
    {
      "name": "Jamshedpur",
      "lat": 22.8046,
      "lng": 86.2029,
      "lst": 39.5,
      "kmeans_zone": "Moderate Zone",
      "dbscan_cluster": 0,
      "gi_z_score": 0.3067,
      "gi_p_value": 0.7591,
      "gi_classification": "Not Significant"
    },
    {
      "name": "Gaya",
      "lat": 24.7955,
      "lng": 85.0002,
      "lst": 42.8,
      "kmeans_zone": "Hot Zone",
      "dbscan_cluster": 0,
      "gi_z_score": 1.0575,
      "gi_p_value": 0.2903,
      "gi_classification": "Not Significant"
    },
    {
      "name": "Cuttack",
      "lat": 20.4625,
      "lng": 85.883,
      "lst": 38.8,
      "kmeans_zone": "Moderate Zone",
      "dbscan_cluster": 0,
      "gi_z_score": -0.4851,
      "gi_p_value": 0.6276,
      "gi_classification": "Not Significant"
    },
    {
      "name": "Ajmer",
      "lat": 26.4499,
      "lng": 74.6399,
      "lst": 42.8,
      "kmeans_zone": "Hot Zone",
      "dbscan_cluster": 0,
      "gi_z_score": 3.2642,
      "gi_p_value": 0.0011,
      "gi_classification": "Critical Hotspot"
    },
    {
      "name": "Dhanbad",
      "lat": 23.7957,
      "lng": 86.4304,
      "lst": 40.8,
      "kmeans_zone": "Hot Zone",
      "dbscan_cluster": 0,
      "gi_z_score": 0.7399,
      "gi_p_value": 0.4594,
      "gi_classification": "Not Significant"
    },
    {
      "name": "Bokaro",
      "lat": 23.6693,
      "lng": 86.1511,
      "lst": 39.5,
      "kmeans_zone": "Moderate Zone",
      "dbscan_cluster": 0,
      "gi_z_score": 0.7399,
      "gi_p_value": 0.4594,
      "gi_classification": "Not Significant"
    },
    {
      "name": "Siliguri",
      "lat": 26.7271,
      "lng": 88.6393,
      "lst": 33.8,
      "kmeans_zone": "Cool Zone",
      "dbscan_cluster": 2,
      "gi_z_score": -0.3464,
      "gi_p_value": 0.729,
      "gi_classification": "Not Significant"
    },
    {
      "name": "Gorakhpur",
      "lat": 26.7606,
      "lng": 83.3732,
      "lst": 41.5,
      "kmeans_zone": "Hot Zone",
      "dbscan_cluster": 0,
      "gi_z_score": 1.7551,
      "gi_p_value": 0.0792,
      "gi_classification": "Marginal Hotspot"
    },
    {
      "name": "Nellore",
      "lat": 14.4426,
      "lng": 79.9865,
      "lst": 39.8,
      "kmeans_zone": "Moderate Zone",
      "dbscan_cluster": 0,
      "gi_z_score": -0.0825,
      "gi_p_value": 0.9342,
      "gi_classification": "Not Significant"
    },
    {
      "name": "Imphal",
      "lat": 24.817,
      "lng": 93.9368,
      "lst": 28.5,
      "kmeans_zone": "Cool Zone",
      "dbscan_cluster": -1,
      "gi_z_score": -4.3332,
      "gi_p_value": 0.0,
      "gi_classification": "Cold Spot"
    },
    {
      "name": "Agartala",
      "lat": 23.8315,
      "lng": 91.2868,
      "lst": 32.5,
      "kmeans_zone": "Cool Zone",
      "dbscan_cluster": 2,
      "gi_z_score": -3.8752,
      "gi_p_value": 0.0001,
      "gi_classification": "Cold Spot"
    },
    {
      "name": "Dibrugarh",
      "lat": 27.4728,
      "lng": 94.912,
      "lst": 29.5,
      "kmeans_zone": "Cool Zone",
      "dbscan_cluster": -1,
      "gi_z_score": -2.7813,
      "gi_p_value": 0.0054,
      "gi_classification": "Cold Spot"
    },
    {
      "name": "Kozhikode",
      "lat": 11.2588,
      "lng": 75.7804,
      "lst": 32.8,
      "kmeans_zone": "Cool Zone",
      "dbscan_cluster": 1,
      "gi_z_score": -3.0686,
      "gi_p_value": 0.0022,
      "gi_classification": "Cold Spot"
    },
    {
      "name": "Bhavnagar",
      "lat": 21.7645,
      "lng": 72.1519,
      "lst": 42.5,
      "kmeans_zone": "Hot Zone",
      "dbscan_cluster": 0,
      "gi_z_score": 0.8346,
      "gi_p_value": 0.4039,
      "gi_classification": "Not Significant"
    },
    {
      "name": "Mathura",
      "lat": 27.4924,
      "lng": 77.6737,
      "lst": 43.8,
      "kmeans_zone": "Hot Zone",
      "dbscan_cluster": 0,
      "gi_z_score": 4.1171,
      "gi_p_value": 0.0,
      "gi_classification": "Critical Hotspot"
    },
    {
      "name": "Firozabad",
      "lat": 27.1591,
      "lng": 78.3957,
      "lst": 44.2,
      "kmeans_zone": "Hot Zone",
      "dbscan_cluster": 0,
      "gi_z_score": 3.9996,
      "gi_p_value": 0.0001,
      "gi_classification": "Critical Hotspot"
    },
    {
      "name": "Sikar",
      "lat": 27.6094,
      "lng": 75.1398,
      "lst": 45.2,
      "kmeans_zone": "Hot Zone",
      "dbscan_cluster": 0,
      "gi_z_score": 4.9418,
      "gi_p_value": 0.0,
      "gi_classification": "Critical Hotspot"
    },
    {
      "name": "Bhilwara",
      "lat": 25.3407,
      "lng": 74.6313,
      "lst": 43.8,
      "kmeans_zone": "Hot Zone",
      "dbscan_cluster": 0,
      "gi_z_score": 2.5644,
      "gi_p_value": 0.0103,
      "gi_classification": "Significant Hotspot"
    },
    {
      "name": "Thrissur",
      "lat": 10.5276,
      "lng": 76.2144,
      "lst": 32.2,
      "kmeans_zone": "Cool Zone",
      "dbscan_cluster": 1,
      "gi_z_score": -3.0686,
      "gi_p_value": 0.0022,
      "gi_classification": "Cold Spot"
    },
    {
      "name": "Kolhapur",
      "lat": 16.705,
      "lng": 74.2433,
      "lst": 35.8,
      "kmeans_zone": "Moderate Zone",
      "dbscan_cluster": 0,
      "gi_z_score": -1.1506,
      "gi_p_value": 0.2499,
      "gi_classification": "Not Significant"
    },
    {
      "name": "Sangli",
      "lat": 16.8524,
      "lng": 74.5815,
      "lst": 38.2,
      "kmeans_zone": "Moderate Zone",
      "dbscan_cluster": 0,
      "gi_z_score": -1.1506,
      "gi_p_value": 0.2499,
      "gi_classification": "Not Significant"
    },
    {
      "name": "Ujjain",
      "lat": 23.1765,
      "lng": 75.7885,
      "lst": 39.8,
      "kmeans_zone": "Moderate Zone",
      "dbscan_cluster": 0,
      "gi_z_score": 0.8074,
      "gi_p_value": 0.4194,
      "gi_classification": "Not Significant"
    },
    {
      "name": "Nanded",
      "lat": 19.1383,
      "lng": 77.321,
      "lst": 40.8,
      "kmeans_zone": "Moderate Zone",
      "dbscan_cluster": 0,
      "gi_z_score": 0.9124,
      "gi_p_value": 0.3615,
      "gi_classification": "Not Significant"
    },
    {
      "name": "Korba",
      "lat": 22.3595,
      "lng": 82.7501,
      "lst": 39.2,
      "kmeans_zone": "Moderate Zone",
      "dbscan_cluster": 0,
      "gi_z_score": -0.0254,
      "gi_p_value": 0.9797,
      "gi_classification": "Not Significant"
    },
    {
      "name": "Bhagalpur",
      "lat": 25.2425,
      "lng": 86.9842,
      "lst": 41.8,
      "kmeans_zone": "Hot Zone",
      "dbscan_cluster": 0,
      "gi_z_score": 0.3338,
      "gi_p_value": 0.7385,
      "gi_classification": "Not Significant"
    },
    {
      "name": "Muzaffarpur",
      "lat": 26.1209,
      "lng": 85.3647,
      "lst": 42.2,
      "kmeans_zone": "Hot Zone",
      "dbscan_cluster": 0,
      "gi_z_score": 1.0782,
      "gi_p_value": 0.2809,
      "gi_classification": "Not Significant"
    },
    {
      "name": "Rohtak",
      "lat": 28.8955,
      "lng": 76.5921,
      "lst": 44.2,
      "kmeans_zone": "Hot Zone",
      "dbscan_cluster": 0,
      "gi_z_score": 2.7939,
      "gi_p_value": 0.0052,
      "gi_classification": "Critical Hotspot"
    },
    {
      "name": "Karnal",
      "lat": 29.6857,
      "lng": 76.9905,
      "lst": 42.8,
      "kmeans_zone": "Hot Zone",
      "dbscan_cluster": 0,
      "gi_z_score": 2.6723,
      "gi_p_value": 0.0075,
      "gi_classification": "Critical Hotspot"
    },
    {
      "name": "Panipat",
      "lat": 29.3909,
      "lng": 76.9635,
      "lst": 44.8,
      "kmeans_zone": "Hot Zone",
      "dbscan_cluster": 0,
      "gi_z_score": 2.7939,
      "gi_p_value": 0.0052,
      "gi_classification": "Critical Hotspot"
    },
    {
      "name": "Sonipat",
      "lat": 28.9931,
      "lng": 77.0151,
      "lst": 44.5,
      "kmeans_zone": "Hot Zone",
      "dbscan_cluster": 0,
      "gi_z_score": 2.7939,
      "gi_p_value": 0.0052,
      "gi_classification": "Critical Hotspot"
    },
    {
      "name": "Hisar",
      "lat": 29.1492,
      "lng": 75.7217,
      "lst": 45.5,
      "kmeans_zone": "Hot Zone",
      "dbscan_cluster": 0,
      "gi_z_score": 2.8202,
      "gi_p_value": 0.0048,
      "gi_classification": "Critical Hotspot"
    },
    {
      "name": "Prayagraj",
      "lat": 25.4358,
      "lng": 81.8463,
      "lst": 42.5,
      "kmeans_zone": "Hot Zone",
      "dbscan_cluster": 0,
      "gi_z_score": 1.3995,
      "gi_p_value": 0.1617,
      "gi_classification": "Not Significant"
    },
    {
      "name": "Leh",
      "lat": 34.1526,
      "lng": 77.5771,
      "lst": 18.5,
      "kmeans_zone": "Cool Zone",
      "dbscan_cluster": -1,
      "gi_z_score": -4.0006,
      "gi_p_value": 0.0001,
      "gi_classification": "Cold Spot"
    },
    {
      "name": "Port Blair",
      "lat": 11.6234,
      "lng": 92.7265,
      "lst": 30.2,
      "kmeans_zone": "Cool Zone",
      "dbscan_cluster": -1,
      "gi_z_score": -1.7231,
      "gi_p_value": 0.0849,
      "gi_classification": "Not Significant"
    }
  ],
  "zone_summary": {
    "Hot Zone": {
      "count": 46,
      "avg_lst": 42.98,
      "avg_uhi": 4.62,
      "cities": [
        "Delhi",
        "Mumbai",
        "Chennai",
        "Ahmedabad",
        "Kolkata",
        "Jaipur",
        "Lucknow",
        "Surat",
        "Kanpur",
        "Nagpur",
        "Patna",
        "Rajkot",
        "Varanasi",
        "Agra",
        "Jodhpur",
        "Gwalior",
        "Amritsar",
        "Allahabad",
        "Meerut",
        "Noida",
        "Gurugram",
        "Faridabad",
        "Ludhiana",
        "Solapur",
        "Bareilly",
        "Moradabad",
        "Aligarh",
        "Bikaner",
        "Kota",
        "Gaya",
        "Ajmer",
        "Dhanbad",
        "Gorakhpur",
        "Bhavnagar",
        "Mathura",
        "Firozabad",
        "Sikar",
        "Bhilwara",
        "Bhagalpur",
        "Muzaffarpur",
        "Rohtak",
        "Karnal",
        "Panipat",
        "Sonipat",
        "Hisar",
        "Prayagraj"
      ]
    },
    "Moderate Zone": {
      "count": 36,
      "avg_lst": 38.36,
      "avg_uhi": 3.16,
      "cities": [
        "Bengaluru",
        "Hyderabad",
        "Pune",
        "Indore",
        "Bhopal",
        "Visakhapatnam",
        "Vadodara",
        "Madurai",
        "Nashik",
        "Ranchi",
        "Chandigarh",
        "Raipur",
        "Bhubaneswar",
        "Vijayawada",
        "Tiruchirappalli",
        "Jabalpur",
        "Gandhinagar",
        "Thane",
        "Udaipur",
        "Jammu",
        "Bilaspur",
        "Warangal",
        "Tirupati",
        "Aurangabad",
        "Hubli-Dharwad",
        "Salem",
        "Guntur",
        "Jamshedpur",
        "Cuttack",
        "Bokaro",
        "Nellore",
        "Kolhapur",
        "Sangli",
        "Ujjain",
        "Nanded",
        "Korba"
      ]
    },
    "Cool Zone": {
      "count": 18,
      "avg_lst": 30.41,
      "avg_uhi": 1.33,
      "cities": [
        "Coimbatore",
        "Guwahati",
        "Thiruvananthapuram",
        "Kochi",
        "Dehradun",
        "Mysuru",
        "Shimla",
        "Shillong",
        "Goa",
        "Mangaluru",
        "Siliguri",
        "Imphal",
        "Agartala",
        "Dibrugarh",
        "Kozhikode",
        "Thrissur",
        "Leh",
        "Port Blair"
      ]
    }
  }
}